[
    {
        "id": "1",
        "Company": "NTT",
        "Name": "NTT  Jakarta 2",
        "City": "Jakarta",
        "Type": "Colocation",
        "Address": "Jalan Kuningan Barat No.8, 12710 Jakarta",
        "Energy": "9.3MW",
        "Server_Number": "",
        "Special Notes": "",
        "Latitude": "-6.2392831",
        "Longitude": "106.8229491",
        "Elevation": "17.40"
    },
    {
        "id": "2",
        "Company": "NTT",
        "Name": "NTT Jakarta 3",
        "City": "Jakarta",
        "Type": "",
        "Address": "Jalan Kuningan Barat No.8, 12710 Jakarta",
        "Energy": "45.6MW ",
        "Server_Number": "",
        "Special Notes": "",
        "Latitude": "-6.2392831",
        "Longitude": "106.8229491",
        "Elevation": "17.40"
    },
    {
        "id": "3",
        "Company": "Digital Edge",
        "Name": "Jakarta EDGE 1",
        "City": "Jakarta",
        "Type": "Colocation",
        "Address": "Jl. Kuningan Barat Raya, Mampang Prapatan, 12710 Jakarta",
        "Energy": "6MW",
        "Server_Number": "",
        "Special Notes": "",
        "Latitude": "-6.2370796",
        "Longitude": "-6.2370796",
        "Elevation": "24.90"
    },
    {
        "id": "4",
        "Company": "STT ",
        "Name": "STT Jakarta 1",
        "City": "Jakarta",
        "Type": "Colocation",
        "Address": "Greenland International Industrial Center, Block EA-7, 77530 Cikarang",
        "Energy": "19.5 MW",
        "Server_Number": "",
        "Special Notes": "",
        "Latitude": "-6.374846176",
        "Longitude": "107.1782569",
        "Elevation": "38.00"
    },
    {
        "id": "5",
        "Company": "Princeton Digital Group",
        "Name": "JC1",
        "City": "Jakarta",
        "Type": "Cloud",
        "Address": "Jl. Sumba Blok A-B Kav. B12-1 Kawasan Industri MM2100, 17530 Bekasi",
        "Energy": "22 MW",
        "Server_Number": "",
        "Special Notes": "",
        "Latitude": "-6.308760628",
        "Longitude": "107.0878118",
        "Elevation": "38.00"
    },
    {
        "id": "6",
        "Company": "Digital Edge",
        "Name": "Jakarta EDGE 2",
        "City": "Jakarta",
        "Type": "",
        "Address": "Jl. Kuningan Mulia, 12980 Jakarta",
        "Energy": "23MW",
        "Server_Number": "",
        "Special Notes": "",
        "Latitude": "-6.212688177",
        "Longitude": "106.8338527",
        "Elevation": "14.70"
    },
    {
        "id": "7",
        "Company": "Princeton Digital Group",
        "Name": "JB1",
        "City": "Jakarta",
        "Type": "Cloud",
        "Address": "Jl. HR. Rasuna Said kav 6-7 kawasan CBD bintaro Tgr. Sel., 15220 Bintaro",
        "Energy": "",
        "Server_Number": "",
        "Special Notes": "",
        "Latitude": "-6.222681062",
        "Longitude": "106.8319955",
        "Elevation": "32.40"
    },
    {
        "id": "8",
        "Company": "BDx",
        "Name": "CGK2",
        "City": "Jakarta",
        "Type": "Colocation",
        "Address": "Jl. Raya Serpong No.255 Warehousing Complex Techno Park, Block D 15314 Tangerang Selatan Indonesia",
        "Energy": "3MW",
        "Server_Number": "",
        "Special Notes": "",
        "Latitude": "-6.337338576",
        "Longitude": "106.6788518",
        "Elevation": "52.80"
    },
    {
        "id": "9",
        "Company": "BDx",
        "Name": "CGK3",
        "City": "Jakarta",
        "Type": "Colocation",
        "Address": "Jalan TB Simatupang Kav. 10, 12240 Jakarta Selatan",
        "Energy": "2MW",
        "Server_Number": "",
        "Special Notes": "",
        "Latitude": "-6.295131821",
        "Longitude": "106.8355763",
        "Elevation": "43.50"
    },
    {
        "id": "10",
        "Company": "Keppel",
        "Name": "IKDC1",
        "City": "Jakarta",
        "Type": "Colocation",
        "Address": "Sukahati, Citeureup, Bogor, Indonesia,16810 Bogor",
        "Energy": "",
        "Server_Number": "",
        "Special Notes": "",
        "Latitude": "-6.506201694",
        "Longitude": "106.9019315",
        "Elevation": "145.30"
    },
    {
        "id": "11",
        "Company": "NEX",
        "Name": "Cyber 2 Tower",
        "City": "Jakarta",
        "Type": "Colocation",
        "Address": "JL. HR Rasuna Said X5 No. 13 Cyber2 Tower 2nd Floor, 12950 Jakarta",
        "Energy": "8MW",
        "Server_Number": "",
        "Special Notes": "",
        "Latitude": "-6.22603966",
        "Longitude": "106.8325583",
        "Elevation": "17.10"
    },
    {
        "id": "12",
        "Company": "Cyber Data Center International",
        "Name": "Cyber Data Center International",
        "City": "Jakarta",
        "Type": "Colocation",
        "Address": "Cyber Building 1, Jl. Kuningan Barat No. 8, 12710 Jakarta",
        "Energy": "",
        "Server_Number": "",
        "Special Notes": "",
        "Latitude": "-6.238989163",
        "Longitude": "106.8236977",
        "Elevation": "31.40"
    },
    {
        "id": "13",
        "Company": "BDx",
        "Name": "CGK1",
        "City": "Jakarta",
        "Type": "Colocation",
        "Address": "Jl. Medan Merdeka Barat No.21, 10110 Jakarta",
        "Energy": "",
        "Server_Number": "",
        "Special Notes": "",
        "Latitude": "-6.179696503",
        "Longitude": "106.8215742",
        "Elevation": "7.00"
    },
    {
        "id": "14",
        "Company": "ISC",
        "Name": "MPR Tier IV Facility",
        "City": "Jakarta",
        "Type": "Colocation",
        "Address": "Jl. Hj. Tutty Alawiyah No 1A, ISC Tower, 12760 Jakarta Selatan",
        "Energy": "5MW",
        "Server_Number": "550",
        "Special Notes": "",
        "Latitude": "-6.25571976",
        "Longitude": "106.8279716",
        "Elevation": "29.50"
    },
    {
        "id": "15",
        "Company": "EdgeConneX Jakarta",
        "Name": "JKT01",
        "City": "Jakarta",
        "Type": "Colocation",
        "Address": "Jl. Mataram No. 6a-6b, 17530 Cikarang",
        "Energy": "",
        "Server_Number": "",
        "Special Notes": "",
        "Latitude": "-6.34579568",
        "Longitude": "107.1667714",
        "Elevation": "50.10"
    },
    {
        "id": "16",
        "Company": "Elitery",
        "Name": "Elitery",
        "City": "Jakarta",
        "Type": "Colocation",
        "Address": "Jl. RS. Fatmawati No. 50, 12430 Jakarta Selatan, Cilandak",
        "Energy": "",
        "Server_Number": "",
        "Special Notes": "",
        "Latitude": "-6.296944978",
        "Longitude": "106.794665",
        "Elevation": "40.00"
    },
    {
        "id": "17",
        "Company": "Nusantara Data Center",
        "Name": "Nusantara Data Center Jakarta 2",
        "City": "Jakarta",
        "Type": "Colocation",
        "Address": "Jl. Jatinegara Barat No.44 Jakarta Timur, 1300 Jakarta",
        "Energy": "",
        "Server_Number": "",
        "Special Notes": "",
        "Latitude": "-6.215024546",
        "Longitude": "106.8624998",
        "Elevation": "14.10"
    },
    {
        "id": "18",
        "Company": "NTT  ",
        "Name": "Jakarta 2 Annex",
        "City": "Jakarta",
        "Type": "Colocation",
        "Address": "Jalan Kuningan Barat IV, 12710 Jakarta",
        "Energy": "12 MW ",
        "Server_Number": "",
        "Special Notes": "",
        "Latitude": "-6.236595261",
        "Longitude": "106.8225028",
        "Elevation": "22.80"
    },
    {
        "id": "19",
        "Company": "Bitera",
        "Name": "Bitera",
        "City": "Jakarta",
        "Type": "Colocation",
        "Address": "Jl. Taman Ubud No.1 Kuningan, Setiabudi, 12950 Jakarta",
        "Energy": "",
        "Server_Number": "",
        "Special Notes": "",
        "Latitude": "-6.234192859",
        "Longitude": "106.827138",
        "Elevation": "20.70"
    },
    {
        "id": "20",
        "Company": "IDC Jakara",
        "Name": "IDC",
        "City": "Jakarta",
        "Type": "Colocation",
        "Address": "Ji. Duren Tiga Raya No.7h, 12760 Jakarta",
        "Energy": "45MW",
        "Server_Number": "",
        "Special Notes": "",
        "Latitude": "-6.252767105",
        "Longitude": "106.8328311",
        "Elevation": "25.70"
    },
    {
        "id": "21",
        "Company": "Pro Data Center",
        "Name": "PDC1",
        "City": "Jakarta",
        "Type": "Colocation",
        "Address": "Jl. Kuningan Barat No. 8, 8th floor, 12710 Jakarta",
        "Energy": "",
        "Server_Number": "",
        "Special Notes": "",
        "Latitude": "-6.238536592",
        "Longitude": "106.824079",
        "Elevation": "36.30"
    },
    {
        "id": "22",
        "Company": "Biznet Networks",
        "Name": "Biznet Technovillage",
        "City": "Jakarta",
        "Type": "Colocation, Hyperscale",
        "Address": "Jl. Biznet Technovillage No. 1, 16965 Cimanggis",
        "Energy": "",
        "Server_Number": "",
        "Special Notes": "Specifically designed for the Disaster Recovery Center",
        "Latitude": "-6.42861688",
        "Longitude": "106.9021487",
        "Elevation": "97.50"
    },
    {
        "id": "23",
        "Company": "DCI Indonesia",
        "Name": "DCI E1",
        "City": "Jakarta",
        "Type": "Colocation",
        "Address": "Jl. Mesjid Darul Blok B No. 7, 12950 Jakarta",
        "Energy": "18 MW",
        "Server_Number": "",
        "Special Notes": "",
        "Latitude": "-6.168149866",
        "Longitude": "106.7215955",
        "Elevation": "5.00"
    },
    {
        "id": "24",
        "Company": "NeutraDC",
        "Name": "Serpong",
        "City": "Jakarta",
        "Type": "Colocation",
        "Address": "Jl. Kapten Soebiantho, 15321 Tangerang, Banten, Indonesia",
        "Energy": "",
        "Server_Number": "",
        "Special Notes": "Specifically designed for the Disaster Recovery Center",
        "Latitude": "-6.300180723",
        "Longitude": "106.6681941",
        "Elevation": "36.70"
    },
    {
        "id": "25",
        "Company": "Princeton Digital Group",
        "Name": "JC2",
        "City": "Jakarta",
        "Type": "Colocation, Hyperscale",
        "Address": "Jl. Sumba Blok A-B Kav. B12-1, Industrial Estate MM2100, 17530 Bekasi",
        "Energy": "",
        "Server_Number": "",
        "Special Notes": "",
        "Latitude": "-6.306675166",
        "Longitude": "107.1022837",
        "Elevation": "36.80"
    },
    {
        "id": "26",
        "Company": "Biznet Networks",
        "Name": "Biznet Jakarta Midplaza",
        "City": "Jakarta",
        "Type": "Colocation, Hyperscale",
        "Address": "Midplaza 1, Jl. Jend. Sudirman Kav.10-11, 5th floor, 10220 Jakarta",
        "Energy": "",
        "Server_Number": "",
        "Special Notes": "",
        "Latitude": "-6.209189449",
        "Longitude": "106.8207839",
        "Elevation": "26.00"
    },
    {
        "id": "27",
        "Company": "PT. Dwi Tunggal Putra - GSD Division",
        "Name": "GSD Apha",
        "City": "Jakarta",
        "Type": "Colocation",
        "Address": "Cyber Building, Jl. Kuningan Barat No. 8, 1st Floor, 12710 Jakarta",
        "Energy": "",
        "Server_Number": "",
        "Special Notes": "",
        "Latitude": "-6.238517661",
        "Longitude": "106.8240317",
        "Elevation": "37.00"
    },
    {
        "id": "28",
        "Company": "Jupiterdc",
        "Name": "Jupiter Cyber Data Center",
        "City": "Jakarta",
        "Type": "Coloacation",
        "Address": "Cyber Building, Jl. Kuningan Barat No. 8, 1st Floor, 12710 Jakarta Selatan",
        "Energy": "",
        "Server_Number": "",
        "Special Notes": "",
        "Latitude": "-6.238602984",
        "Longitude": "106.8241497",
        "Elevation": "36.10"
    },
    {
        "id": "29",
        "Company": "NeutraDC ",
        "Name": "HDC Cikarang",
        "City": "Jakarta",
        "Type": "Colocation",
        "Address": "Greenland International Industrial Center (GIIC), 17530 Cikarang",
        "Energy": "75MW",
        "Server_Number": "",
        "Special Notes": "Earthquake proof design, 100+ year flood plain",
        "Latitude": "-6.373033548",
        "Longitude": "107.1781282",
        "Elevation": "49.00"
    },
    {
        "id": "30",
        "Company": "ISC ",
        "Name": "CBR (Tier III Facility Uptime Institute)",
        "City": "Jakarta",
        "Type": "Colocation",
        "Address": "PT. Indonesia Super Corridor within Cyber Building 9th floor, 12710 Jakarta Selatan",
        "Energy": "",
        "Server_Number": "",
        "Special Notes": "",
        "Latitude": "-6.238446365",
        "Longitude": "106.8241162",
        "Elevation": "33.00"
    },
    {
        "id": "31",
        "Company": "Pro Data Center",
        "Name": "PDC2",
        "City": "Jakarta",
        "Type": "Colocation",
        "Address": "Jl. Kuningan Barat No. 8, 9th floor, 12710 Jakarta",
        "Energy": "",
        "Server_Number": "",
        "Special Notes": "",
        "Latitude": "-6.238423727",
        "Longitude": "106.8241671",
        "Elevation": "31.10"
    },
    {
        "id": "32",
        "Company": "Digital Hyperscale Indonesia",
        "Name": "Digital Hyperspace DC",
        "City": "Jakarta",
        "Type": "Colocation",
        "Address": "Greenland International Industrial Center, Zone EE, Lot 1, 17530 Pasirpanji",
        "Energy": "",
        "Server_Number": "",
        "Special Notes": "",
        "Latitude": "-6.373033548",
        "Longitude": "107.1781282",
        "Elevation": "49.00"
    },
    {
        "id": "33",
        "Company": "DCI Indonesia",
        "Name": "JK1",
        "City": "Jakarta",
        "Type": "Colocation",
        "Address": "St Jawa, Block GG5-1, MM2100 Industrial Area, Building 1, 17520 Bekasi",
        "Energy": "",
        "Server_Number": "",
        "Special Notes": "",
        "Latitude": "-6.291308226",
        "Longitude": "107.0804767",
        "Elevation": "28.90"
    },
    {
        "id": "34",
        "Company": "MettaDC",
        "Name": "POP01",
        "City": "Jakarta",
        "Type": "Colocation",
        "Address": "Jl. Kuningan Barat Raya No.8 5th Floor, 12310 Jakarta Selatan, DKI Jakarta, Indonesia",
        "Energy": "",
        "Server_Number": "",
        "Special Notes": "",
        "Latitude": "-6.238515784",
        "Longitude": "106.8241213",
        "Elevation": "34.80"
    },
    {
        "id": "35",
        "Company": "DCI Indonesia",
        "Name": "JK5",
        "City": "Jakarta",
        "Type": "Colocation",
        "Address": "St Jawa, Block GG5-1, MM2100 Industrial Area Building 4, 17520 Bekasi, Indonesia",
        "Energy": "",
        "Server_Number": "",
        "Special Notes": "",
        "Latitude": "-6.29131889",
        "Longitude": "107.0808951",
        "Elevation": "28.60"
    },
    {
        "id": "36",
        "Company": "DCI Indonesia",
        "Name": "H2-02",
        "City": "Jakarta",
        "Type": "Colocation",
        "Address": "Pertiwi Lestari Industrial Estate, Blok A-V1 No 1C, Building 2, 41361 Karawang, Indonesia",
        "Energy": "12MW",
        "Server_Number": "",
        "Special Notes": "",
        "Latitude": "-6.396544428",
        "Longitude": "107.2497636",
        "Elevation": "63.00"
    },
    {
        "id": "37",
        "Company": "DCI Indonesia",
        "Name": "JK3",
        "City": "Jakarta",
        "Type": "Colocation",
        "Address": "St Jawa, Block GG5-1, MM2100 Industrial Area Building 3, 17520 Bekasi, Indonesia",
        "Energy": "",
        "Server_Number": "",
        "Special Notes": "",
        "Latitude": "-6.29131889",
        "Longitude": "107.0808951",
        "Elevation": "28.60"
    },
    {
        "id": "38",
        "Company": "DCI Indonesia",
        "Name": "JK2",
        "City": "Jakarta",
        "Type": "Colocation",
        "Address": "St Jawa, Block GG5-1, MM2100 Industrial Area Building 2, 17520 Bekasi, Indonesia",
        "Energy": "",
        "Server_Number": "",
        "Special Notes": "",
        "Latitude": "-6.29131889",
        "Longitude": "107.0808951",
        "Elevation": "28.60"
    },
    {
        "id": "39",
        "Company": "Lintasarta",
        "Name": "Linsarta Jakarta City Center",
        "City": "Jakarta",
        "Type": "Colocation",
        "Address": "Jl. Tahi Bonar Simatupang Raya No.16, 12430 Jakarta, Indonesia",
        "Energy": "",
        "Server_Number": "",
        "Special Notes": "",
        "Latitude": "-6.29106594",
        "Longitude": "106.7852274",
        "Elevation": "33.00"
    },
    {
        "id": "40",
        "Company": "Lintasarta",
        "Name": "Linsarta Techno Park",
        "City": "Jakarta",
        "Type": "Colocation",
        "Address": "Komplek Pergudangan Taman Tekno Blok D No.8, 15314 Tangerang, Indonesia",
        "Energy": "",
        "Server_Number": "",
        "Special Notes": "",
        "Latitude": "-6.327701279",
        "Longitude": "106.6787961",
        "Elevation": "56.20"
    },
    {
        "id": "41",
        "Company": "Goldenfast Network",
        "Name": "Goldenfast Network",
        "City": "Jakarta",
        "Type": "Colocation, Cloud",
        "Address": "PT Jejaring Cepat Indonesia, Cyber Building 1, Jl Kuningan Barat no.8, 3rd floor, 12710 Jakarta, Jakarta, Indonesia",
        "Energy": "",
        "Server_Number": "",
        "Special Notes": "",
        "Latitude": "-6.238337935",
        "Longitude": "106.8239603",
        "Elevation": "33.60"
    },
    {
        "id": "42",
        "Company": "Cybertechtonic Pratama",
        "Name": "CBTP Data Center",
        "City": "Jakarta",
        "Type": "Colocation, Cloud",
        "Address": "Cybertechtonic Pratama TIFA Building, Jl. Kuningan Barat No. 26, 6th fl. Suite 104 12710 Jakarta Jakarta Selatan, Indonesia",
        "Energy": "",
        "Server_Number": "",
        "Special Notes": "",
        "Latitude": "-6.234754364",
        "Longitude": "106.8213292",
        "Elevation": "24.70"
    },
    {
        "id": "43",
        "Company": "Matrix NAP Info",
        "Name": "Matrix Data Center JK2",
        "City": "Jakarta",
        "Type": "Colocation",
        "Address": "Jl. Kuningan Barat Raya No.8 12710 Jakarta Indonesia",
        "Energy": "",
        "Server_Number": "",
        "Special Notes": "",
        "Latitude": "-6.238575649",
        "Longitude": "106.8241471",
        "Elevation": "35.60"
    },
    {
        "id": "44",
        "Company": "Matrix NAP Info",
        "Name": "Matrix Data Center JK3",
        "City": "Jakarta",
        "Type": "Colocation",
        "Address": "Plaza Kuningan, Jl. H. R. Rasuna Said, RT.2/RW.5 12710 Jakarta Indonesia",
        "Energy": "",
        "Server_Number": "",
        "Special Notes": "",
        "Latitude": "-6.216636118",
        "Longitude": "106.8323445",
        "Elevation": "11.90"
    },
    {
        "id": "45",
        "Company": "Primacom Interbuana",
        "Name": "Primacom Data Center",
        "City": "Jakarta",
        "Type": "Colocation",
        "Address": "Jl Jalur Sutera Kav. 5A 15144 Tangerang Indonesia",
        "Energy": "",
        "Server_Number": "",
        "Special Notes": "",
        "Latitude": "-6.223711911",
        "Longitude": "106.6661107",
        "Elevation": "20.00"
    },
    {
        "id": "46",
        "Company": "DCI Indonesia",
        "Name": "H2-01",
        "City": "Jakarta",
        "Type": "Colocation",
        "Address": "Pertiwi Lestari Industrial Estate, Blok A-V1 No 1C 41361 Karawang Indonesia",
        "Energy": "15MW",
        "Server_Number": "",
        "Special Notes": "DCI Indonesia campus uses total of 600MW capacity",
        "Latitude": "-6.388017458",
        "Longitude": "107.2525634",
        "Elevation": "52.40"
    },
    {
        "id": "47",
        "Company": "PT Api Metra Graha",
        "Name": "The Energy Building",
        "City": "Jakarta",
        "Type": "Colocation",
        "Address": "Jl. Jend Sudirman Kav.52-53 12190 Jakarta Indonesia",
        "Energy": "",
        "Server_Number": "",
        "Special Notes": "",
        "Latitude": "-6.224456793",
        "Longitude": "106.8114282",
        "Elevation": "20.60"
    },
    {
        "id": "48",
        "Company": "Bersama Digital",
        "Name": "BDDC Jakarta Barat Tangerang 1",
        "City": "Jakarta",
        "Type": "Colocation",
        "Address": "Jalan Daan Mogot KM18 11840 Jakarta Indonesia",
        "Energy": "30MW",
        "Server_Number": "",
        "Special Notes": "",
        "Latitude": "-6.154987748",
        "Longitude": "106.6911621",
        "Elevation": "8.10"
    },
    {
        "id": "49",
        "Company": "Matrix NAP Info",
        "Name": "JK1",
        "City": "Jakarta",
        "Type": "Colocation",
        "Address": "Plaza Kuningan, Jl. H. R. Rasuna Said No.Kav. C11-14, RT.2/RW.5 Suite 101 12940 Jakarta Indonesia",
        "Energy": "",
        "Server_Number": "",
        "Special Notes": "Specifically designed for the Disaster Recovery Center",
        "Latitude": "-6.216600289",
        "Longitude": "106.8314649",
        "Elevation": "14.00"
    },
    {
        "id": "50",
        "Company": "PT Mahavira System Integra",
        "Name": "NexByte",
        "City": "Jakarta",
        "Type": "Colocation",
        "Address": "Jl. Kuningan Barat No. 8, 1st Floor 12710 Jakarta, Indonesia",
        "Energy": "0.2MW",
        "Server_Number": "",
        "Special Notes": "",
        "Latitude": "-6.236262064",
        "Longitude": "106.8248076",
        "Elevation": "24.70"
    },
    {
        "id": "51",
        "Company": "Jupiterdc",
        "Name": "Jupiter TIFA Data Center",
        "City": "Jakarta",
        "Type": "Colocation",
        "Address": "TIFA Building, Jl. Kuningan Barat No. 26, 1st fl., 12710 Jakarta Selatan, DKI Jaya, Indonesia",
        "Energy": "",
        "Server_Number": "",
        "Special Notes": "",
        "Latitude": "-6.236933981",
        "Longitude": "106.8235953",
        "Elevation": "24.40"
    },
    {
        "id": "52",
        "Company": "PT. Dwi Tunggal Putra ",
        "Name": "GSD C1",
        "City": "Jakarta",
        "Type": "Colocation",
        "Address": "Cyber Building, Jl. Kuningan Barat No. 8 Basement Floor 12710 Jakarta Indonesia",
        "Energy": "",
        "Server_Number": "250",
        "Special Notes": "",
        "Latitude": "-6.238538992",
        "Longitude": "106.8239566",
        "Elevation": "39.20"
    },
    {
        "id": "53",
        "Company": "PT. Cyber Network Indonesia",
        "Name": "CNI DC CBR- Cyber Building",
        "City": "Jakarta",
        "Type": "Colocation",
        "Address": "Jl. Kuningan Barat Kav 8 Gedung Cyber 1 9th Floor 12170 Jakarta Indonesia",
        "Energy": "",
        "Server_Number": "",
        "Special Notes": "",
        "Latitude": "-6.238537605",
        "Longitude": "106.824167",
        "Elevation": "34.10"
    },
    {
        "id": "54",
        "Company": "PT. Dhecyber Flow Indonesia",
        "Name": "Dhecyber Flow Indonesia",
        "City": "Jakarta",
        "Type": "Colocation",
        "Address": "Jl. Kuningan Barat No. 8, 5th floor, 12710 Jakarta DKI, Indonesia",
        "Energy": "",
        "Server_Number": "",
        "Special Notes": "",
        "Latitude": "-6.238537605",
        "Longitude": "106.824167",
        "Elevation": "34.10"
    },
    {
        "id": "55",
        "Company": "PT. Dwi Tunggal Putra",
        "Name": "GSD T1",
        "City": "Jakarta",
        "Type": "Colocation",
        "Address": "TIFA Building, Jl. Kuningan Barat No. 26 1st Floor 12710 Jakarta Indonesia",
        "Energy": "",
        "Server_Number": "48",
        "Special Notes": "",
        "Latitude": "-6.235269587",
        "Longitude": "106.8214964",
        "Elevation": "22.70"
    },
    {
        "id": "56",
        "Company": "PT. Dwi Tunggal Putra",
        "Name": "GSD T2",
        "City": "Jakarta",
        "Type": "Colocation",
        "Address": "TIFA Building, Jl. Kuningan Barat No. 26 1st Floor 12710 Jakarta Indonesia",
        "Energy": "",
        "Server_Number": "66",
        "Special Notes": "",
        "Latitude": "-6.235269587",
        "Longitude": "106.8214964",
        "Elevation": "22.70"
    },
    {
        "id": "57",
        "Company": "ST Telemedia",
        "Name": "STTJakarta 3",
        "City": "Jakarta",
        "Type": "Colocation",
        "Address": "77530 Cikarang Indonesia",
        "Energy": "24MW",
        "Server_Number": "",
        "Special Notes": "",
        "Latitude": "-6.2977116",
        "Longitude": "107.1607497",
        "Elevation": "21.60"
    },
    {
        "id": "58",
        "Company": "ST Telemedia",
        "Name": "STTJakarta 4",
        "City": "Jakarta",
        "Type": "Colocation",
        "Address": "77530 Cikarang Indonesia",
        "Energy": "32MW",
        "Server_Number": "",
        "Special Notes": "",
        "Latitude": "-6.2977116",
        "Longitude": "107.1607497",
        "Elevation": "21.60"
    },
    {
        "id": "59",
        "Company": "ST Telemedia",
        "Name": "STTJakarta 2",
        "City": "Jakarta",
        "Type": "Colocation",
        "Address": "77530 Cikarang Indonesia",
        "Energy": "24MW",
        "Server_Number": "",
        "Special Notes": "",
        "Latitude": "-6.2977116",
        "Longitude": "107.1607497",
        "Elevation": "21.60"
    },
    {
        "id": "60",
        "Company": "Centrin Online",
        "Name": "Centrin Online",
        "City": "Jakarta",
        "Type": "Colocation",
        "Address": "Jl. Gatot Subroto No.4 38 12710 Jakarta West Java, Indonesia",
        "Energy": "",
        "Server_Number": "",
        "Special Notes": "",
        "Latitude": "-6.241325636",
        "Longitude": "106.8358248",
        "Elevation": "18.90"
    },
    {
        "id": "61",
        "Company": "Teknovatus ",
        "Name": "Teknovatus Data Center",
        "City": "Jakarta",
        "Type": "Colocation",
        "Address": "Lot.12A, Jl. Pahlawan Seribu, Lengkong Gudang 15321 Tangerang Indonesia",
        "Energy": "",
        "Server_Number": "",
        "Special Notes": "",
        "Latitude": "-6.289973168",
        "Longitude": "106.6662524",
        "Elevation": "42.50"
    },
    {
        "id": "62",
        "Company": "PT. Intelex Telecom Global",
        "Name": "Intelex Global Jakarta",
        "City": "Jakarta",
        "Type": "Colocation",
        "Address": "Menara Prima, Jl. Lingkar Mega Kuningan block 6.2 3rd floor #3A 12950 Jakarta Indonesia",
        "Energy": "",
        "Server_Number": "",
        "Special Notes": "",
        "Latitude": "-6.230184854",
        "Longitude": "106.8262379",
        "Elevation": "21.50"
    },
    {
        "id": "63",
        "Company": "Amazon AWS",
        "Name": "Amazon AWS CGK- Sukamahi",
        "City": "Jakarta",
        "Type": "Colocation",
        "Address": "Greenland International Industrial Center 17530 Sukamahi Indonesia",
        "Energy": "",
        "Server_Number": "",
        "Special Notes": "",
        "Latitude": "-6.375501919",
        "Longitude": "107.1794585",
        "Elevation": "39.40"
    },
    {
        "id": "64",
        "Company": "Amazon AWS",
        "Name": "Amazon AWS CGK- Margamulya",
        "City": "Jakarta",
        "Type": "Colocation",
        "Address": "Karawang International Industrial City 41361 Margamulya Indonesia",
        "Energy": "",
        "Server_Number": "42",
        "Special Notes": "",
        "Latitude": "-6.359197487",
        "Longitude": "107.2750366",
        "Elevation": "37.60"
    },
    {
        "id": "65",
        "Company": "Amazon AWS",
        "Name": "Amazon AWS CGK- Kutanegara",
        "City": "Jakarta",
        "Type": "Colocation",
        "Address": "Jalan Surya Utama 41363 Kutanegara Indonesia",
        "Energy": "",
        "Server_Number": "",
        "Special Notes": "",
        "Latitude": "-6.384457298",
        "Longitude": "107.3346562",
        "Elevation": "28.70"
    },
    {
        "id": "66",
        "Company": "Bersama Digital",
        "Name": "BDDC Jakarta Selatan Timur",
        "City": "Jakarta",
        "Type": "Colocation",
        "Address": "Jl. Letnan Jenderal MT Haryono No. 377 13320 Jakarta Indonesia",
        "Energy": "30MW",
        "Server_Number": "",
        "Special Notes": "",
        "Latitude": "-6.244970299",
        "Longitude": "106.8685666",
        "Elevation": "22.40"
    },
    {
        "id": "67",
        "Company": "MettaDC ",
        "Name": "MettaDC ID02",
        "City": "Jakarta",
        "Type": "Colocation",
        "Address": "Jl. Kapten Tendean No.12A, RT.1/RW.2 12710 Jakarta Indonesia",
        "Energy": "",
        "Server_Number": "",
        "Special Notes": "",
        "Latitude": "-6.238823027",
        "Longitude": "106.8201341",
        "Elevation": "13.40"
    },
    {
        "id": "68",
        "Company": "NEX",
        "Name": "NEX Datacenter- Menara Tendean",
        "City": "Jakarta",
        "Type": "Colocation",
        "Address": "Jl. Kapten Tendean No.20C, RT.4/RW.3 12710 Jakarta Indonesia",
        "Energy": "",
        "Server_Number": "",
        "Special Notes": "",
        "Latitude": "-6.238823027",
        "Longitude": "106.8201341",
        "Elevation": "13.40"
    },
    {
        "id": "69",
        "Company": "Datahall",
        "Name": "Datahall Data Center",
        "City": "Jakarta",
        "Type": "Colocation",
        "Address": "Jl. Kalibata Raya - Dewi Sartika, No. 25-30 13630 East Jakarta Indonesia",
        "Energy": "",
        "Server_Number": "",
        "Special Notes": "",
        "Latitude": "-6.257100689",
        "Longitude": "106.8635121",
        "Elevation": "27.60"
    },
    {
        "id": "70",
        "Company": "neuCentrIX",
        "Name": "neuCentrIX Meruya",
        "City": "Jakarta",
        "Type": "Colocation",
        "Address": "Jl. Makam Joglo RT 8 11640 Jakarta Indonesia",
        "Energy": "",
        "Server_Number": "",
        "Special Notes": "",
        "Latitude": "-6.220208051",
        "Longitude": "106.7407378",
        "Elevation": "15.30"
    },
    {
        "id": "71",
        "Company": "Tifa Arum Realty",
        "Name": "TIFA Building",
        "City": "Jakarta",
        "Type": "Colocation",
        "Address": "TIFA Building, Jl. Kuningan Barat No. 26 12710 Jakarta Indonesia",
        "Energy": "",
        "Server_Number": "",
        "Special Notes": "",
        "Latitude": "-6.235269587",
        "Longitude": "106.8214535",
        "Elevation": "21.20"
    },
    {
        "id": "72",
        "Company": "Rajadata Parama TransNetwork",
        "Name": "Rajadata",
        "City": "Jakarta",
        "Type": "Colocation",
        "Address": "Gedung Cyber Lantai 8 Jl Kuningan Barat No.8 12710 Jakarta Selatan DKI JAYA, Indonesia",
        "Energy": "",
        "Server_Number": "",
        "Special Notes": "",
        "Latitude": "-6.238645645",
        "Longitude": "106.8239137",
        "Elevation": "42.10"
    },
    {
        "id": "73",
        "Company": "Interlink Technology",
        "Name": "Interlink Data Center Sejahtera",
        "City": "Jakarta",
        "Type": "Colocation",
        "Address": "Gedung Cyber Lantai 3A 12710 Jakarta Selatan Indonesia, Indonesia",
        "Energy": "",
        "Server_Number": "",
        "Special Notes": "",
        "Latitude": "-6.238505118",
        "Longitude": "106.8244646",
        "Elevation": "25.90"
    },
    {
        "id": "74",
        "Company": "SCBD",
        "Name": "SCBD Data Center",
        "City": "Jakarta",
        "Type": "Colocation",
        "Address": "Control Building, Sudirman Central Business District (SCBD) Kav. 52-53 Jl. Jenderal Sudirman 12190 Jakarta Indonesia",
        "Energy": "",
        "Server_Number": "",
        "Special Notes": "",
        "Latitude": "-6.224597969",
        "Longitude": "106.81168",
        "Elevation": "23.10"
    },
    {
        "id": "75",
        "Company": "Wide Host Media",
        "Name": "Wide Host Media Jakarta",
        "City": "Jakarta",
        "Type": "Colocation",
        "Address": "Cyber Building 1, Jl. Kuningan Barat No. 8 12710 Jakarta DKI Jakarta, Indonesia",
        "Energy": "",
        "Server_Number": "",
        "Special Notes": "",
        "Latitude": "-6.239040261",
        "Longitude": "106.8235596",
        "Elevation": "25.60"
    },
    {
        "id": "76",
        "Company": "PT. Indonesia Super Corridor",
        "Name": "ISC Data Center/Disaster Recovery Center DPR Tier III Facility",
        "City": "Denpasar",
        "Type": "Colocation",
        "Address": "Jl.Gatot Subroto Barat No.333 80117 Denpasar Bali, Indonesia",
        "Energy": "",
        "Server_Number": "",
        "Special Notes": "Data Recovery Center",
        "Latitude": "-8.637954211",
        "Longitude": "115.1993449",
        "Elevation": "39.90"
    },
    {
        "id": "77",
        "Company": "PT. Cyber Network Indonesia",
        "Name": "CNI DC DPR - Bali",
        "City": "Denpasar",
        "Type": "Colocation",
        "Address": "Jl. Gatot Subroto Barat No.333 80117 Denpasar Indonesia",
        "Energy": "",
        "Server_Number": "",
        "Special Notes": "",
        "Latitude": "-8.637826925",
        "Longitude": "115.1993556",
        "Elevation": "39.90"
    },
    {
        "id": "78",
        "Company": "Nusantara Data Center",
        "Name": "Nusantara Data Center Bali",
        "City": "Denpasar",
        "Type": "Colocation",
        "Address": "Jl. Padang Galak Pertigaan 80111 Bali Bali, Indonesia",
        "Energy": "",
        "Server_Number": "",
        "Special Notes": "",
        "Latitude": "-8.657270464",
        "Longitude": "115.2605334",
        "Elevation": "14.60"
    },
    {
        "id": "79",
        "Company": "neuCentrlX ",
        "Name": "neuCentrlX Kaliasem",
        "City": "Denpasar",
        "Type": "Colocation",
        "Address": "Jl. Kaliasem No. 5 80232 Denpasar Indonesia",
        "Energy": "",
        "Server_Number": "",
        "Special Notes": "",
        "Latitude": "-8.65530397",
        "Longitude": "115.2189312",
        "Elevation": "30.90"
    },
    {
        "id": "80",
        "Company": "Princeton Digital Group",
        "Name": "Princeton Digital SB1",
        "City": "Surabaya",
        "Type": "Colocation",
        "Address": "Jalan Raya Rungkut Industri II No.15, Kali Rungkut, Rungkut, Kota SBY 60293 Surabaya Indonesia",
        "Energy": "8MW",
        "Server_Number": "",
        "Special Notes": "11197sqm",
        "Latitude": "-7.324202601",
        "Longitude": "112.7563023",
        "Elevation": "8.50"
    },
    {
        "id": "81",
        "Company": "Omadata Surabaya",
        "Name": "Omadata Surabaya Dta Center",
        "City": "Surabaya",
        "Type": "Colocation",
        "Address": "Intiland Tower, Jl. Panglima Sudirman 101-103 3rd Floor 60271 Surabaya East Java, Indonesia",
        "Energy": "",
        "Server_Number": "",
        "Special Notes": "",
        "Latitude": "-7.272721156",
        "Longitude": "112.744272",
        "Elevation": "6.20"
    },
    {
        "id": "82",
        "Company": "NeutraDC",
        "Name": "NeutraDC Surabaya",
        "City": "Surabaya",
        "Type": "Colocation",
        "Address": "Jl. Raya Bukit Bali Lakarsantri 60211 Surabaya East Java, Indonesia",
        "Energy": "2.5MW",
        "Server_Number": "",
        "Special Notes": "7046sqm",
        "Latitude": "-7.299985791",
        "Longitude": "112.6375424",
        "Elevation": "13.10"
    },
    {
        "id": "83",
        "Company": "Intiland",
        "Name": "Intiland Tower",
        "City": "Surabaya",
        "Type": "Colocation",
        "Address": "Intiland Tower, Panglima Sudirman 101-103 60271 Surabaya East Java, Indonesia",
        "Energy": "",
        "Server_Number": "",
        "Special Notes": "",
        "Latitude": "-7.272721156",
        "Longitude": "112.7438213",
        "Elevation": "7.80"
    },
    {
        "id": "84",
        "Company": "Nusantara Data Center",
        "Name": "Nusantara Data Center Surabaya",
        "City": "Surabaya",
        "Type": "Colocation",
        "Address": "Jl. Raya Tenggilis Mejoyo D-15 60291 Surabaya East Java, Indonesia",
        "Energy": "",
        "Server_Number": "",
        "Special Notes": "",
        "Latitude": "-7.318757565",
        "Longitude": "112.7636772",
        "Elevation": "3.30"
    },
    {
        "id": "85",
        "Company": "neuCentrIX",
        "Name": "neuCentrlIX Gubeng",
        "City": "Surabaya",
        "Type": "Colocation",
        "Address": "Jl. Kalisosok Dapuan Bend. Gg. I No.12 60175 Surabaya Indonesia",
        "Energy": "",
        "Server_Number": "",
        "Special Notes": "",
        "Latitude": "-7.229218659",
        "Longitude": "112.7351242",
        "Elevation": "6.30"
    },
    {
        "id": "86",
        "Company": "Princeton Digital Group",
        "Name": "Princeton Digital BD1",
        "City": "Bandung",
        "Type": "Colocation",
        "Address": "Jl. Soekarno Hatta No.779, Cisaranten Kulon, Arcamanik, Kota Bandung 40292 Bandung Indonesia",
        "Energy": "",
        "Server_Number": "",
        "Special Notes": "",
        "Latitude": "-6.937118569",
        "Longitude": "107.6814756",
        "Elevation": "672.70"
    },
    {
        "id": "87",
        "Company": "BDx",
        "Name": "BDx CGK4",
        "City": "Bandung",
        "Type": "Colocation",
        "Address": "Jl. Ir. H.Juanda 41152 Purwakarta Indonesia",
        "Energy": "500MW",
        "Server_Number": "",
        "Special Notes": "4152sqm",
        "Latitude": "-6.535690466",
        "Longitude": "107.4192371",
        "Elevation": "110.40"
    },
    {
        "id": "88",
        "Company": "",
        "Name": "BBU/Graha Bumipurtera",
        "City": "Bandung",
        "Type": "Colocation",
        "Address": "Jl. Karang Mas, Sejahtera, Kec. Kuta Sel., Kabupaten Badung 80361 Jimbaran Indonesia",
        "Energy": "",
        "Server_Number": "",
        "Special Notes": "",
        "Latitude": "-8.786261163",
        "Longitude": "115.1582756",
        "Elevation": "56.50"
    },
    {
        "id": "89",
        "Company": "PT Prestasi Piranti Informasi",
        "Name": "Neuviz Bandung Data Center",
        "City": "Bandung",
        "Type": "Colocation",
        "Address": "Jl. Asia Afrika No.141-149 40112 Bandung Indonesia",
        "Energy": "",
        "Server_Number": "",
        "Special Notes": "",
        "Latitude": "-6.920222661",
        "Longitude": "107.6161909",
        "Elevation": "699.00"
    },
    {
        "id": "90",
        "Company": "neuCentrIX",
        "Name": "neuCentrIX Lembong",
        "City": "Bandung",
        "Type": "Colocation",
        "Address": "Jl. Lembong No.11 40111 Bandung Indonesia",
        "Energy": "",
        "Server_Number": "",
        "Special Notes": "",
        "Latitude": "-6.916564611",
        "Longitude": "107.6113359",
        "Elevation": "709.70"
    },
    {
        "id": "91",
        "Company": "Wide Host Media",
        "Name": "Wide Host Media Bandung",
        "City": "Bandung",
        "Type": "Colocation",
        "Address": "Wisma Bumiputera, Jl. Asia Afrika No.141-149 40112 Bandung West Java, Indonesia",
        "Energy": "",
        "Server_Number": "",
        "Special Notes": "",
        "Latitude": "-6.921813111",
        "Longitude": "107.616732",
        "Elevation": "702.40"
    },
    {
        "id": "92",
        "Company": "Nusantara Data Center",
        "Name": "Nusantara Data Center Medan",
        "City": "Medan",
        "Type": "Colocation",
        "Address": "Jl. Gajah Mada No.32 Simpang Darusalam 55405 Medan Sumatra, Indonesia",
        "Energy": "",
        "Server_Number": "",
        "Special Notes": "",
        "Latitude": "3.58513534",
        "Longitude": "98.65324843",
        "Elevation": "24.20"
    },
    {
        "id": "93",
        "Company": "neuCentrIX ",
        "Name": "neuCentrIX Medan",
        "City": "Medan",
        "Type": "Colocation",
        "Address": "",
        "Energy": "",
        "Server_Number": "",
        "Special Notes": "",
        "Latitude": "3.594536679",
        "Longitude": "98.66471696",
        "Elevation": "24.20"
    },
    {
        "id": "94",
        "Company": "MettaDC",
        "Name": "MettaDC ID01",
        "City": "Bekasi",
        "Type": "Coloacation",
        "Address": "Jl. Science Boulevard 17530 Cikarang West Java, Indonesia",
        "Energy": "",
        "Server_Number": "",
        "Special Notes": "",
        "Latitude": "-6.317683286",
        "Longitude": "107.1729258",
        "Elevation": "21.30"
    },
    {
        "id": "95",
        "Company": "PT. Jembatan Citra Nusantara",
        "Name": "Citranet Yogyakarta",
        "City": "Yogyakarta",
        "Type": "Colocation",
        "Address": "Jl. Petung No.31 1st Floor 55281 Yogyakarta Indonesia",
        "Energy": "",
        "Server_Number": "",
        "Special Notes": "150sqm",
        "Latitude": "-7.778754563",
        "Longitude": "110.3946671",
        "Elevation": "131.90"
    },
    {
        "id": "96",
        "Company": "neuCentrIX",
        "Name": "neuCentrIX Kota Baru",
        "City": "Yogyakarta",
        "Type": "Colocation",
        "Address": "Jl. Yos Sudarso No. 9 55224 Yogyakarta Indonesia",
        "Energy": "",
        "Server_Number": "",
        "Special Notes": "",
        "Latitude": "-7.786853457",
        "Longitude": "110.3751696",
        "Elevation": "123.10"
    },
    {
        "id": "97",
        "Company": "IDC Indonesia",
        "Name": "IDC Batam",
        "City": "Batam",
        "Type": "Colocation",
        "Address": "Jl. Engku Putri Utara No.Kav.1 4th Floor 29461 Batam Indonesia",
        "Energy": "40MW",
        "Server_Number": "",
        "Special Notes": "",
        "Latitude": "1.128410494",
        "Longitude": "104.0516309",
        "Elevation": "12.40"
    },
    {
        "id": "98",
        "Company": "NeutraDC",
        "Name": "NeutraDC HDC Batam",
        "City": "Batam",
        "Type": "Colocation",
        "Address": "Kabil Integrated Industrial Estate (KIIE), Jl. Hang Kesturi 29465 Batam Indonesia",
        "Energy": "17MW",
        "Server_Number": "",
        "Special Notes": "",
        "Latitude": "1.1138693",
        "Longitude": "104.1338403",
        "Elevation": "15.40"
    },
    {
        "id": "99",
        "Company": "Nusantara Data Center",
        "Name": "Nusantara Data Center Batam",
        "City": "Batam",
        "Type": "Colocation",
        "Address": "Jl. Citra Lautan Teduh No.18 29466 Batam Indonesia",
        "Energy": "",
        "Server_Number": "",
        "Special Notes": "",
        "Latitude": "1.16011739",
        "Longitude": "104.1409703",
        "Elevation": "2.00"
    },
    {
        "id": "100",
        "Company": "Princeton Digital Group",
        "Name": "Princeton Digital BT1",
        "City": "Batam",
        "Type": "Colocation",
        "Address": "Jl. Teluk Mata Ikan 29465 Nongsa Indonesia",
        "Energy": "24MW",
        "Server_Number": "",
        "Special Notes": "",
        "Latitude": "1.155864275",
        "Longitude": "104.1054793",
        "Elevation": "29.10"
    },
    {
        "id": "101",
        "Company": "Matrix NAP Info",
        "Name": "Matrix Data Center BM1",
        "City": "Batam",
        "Type": "Colocation",
        "Address": "Jl. Citra Lautan Teduh, Tg. Bemban 29466 Batam Indonesia",
        "Energy": "",
        "Server_Number": "",
        "Special Notes": "",
        "Latitude": "1.168195051",
        "Longitude": "104.1375734",
        "Elevation": "30.40"
    },
    {
        "id": "102",
        "Company": "PT Omni Data Center Indonesia",
        "Name": "Omni DC",
        "City": "Batam",
        "Type": "Colocation",
        "Address": "Jl. Perahu Dendang No. 1. Kp. Belian 4th & 5th floor 29444 Batam Indonesia",
        "Energy": "",
        "Server_Number": "",
        "Special Notes": "",
        "Latitude": "1.129942396",
        "Longitude": "104.062155",
        "Elevation": "0.20"
    },
    {
        "id": "103",
        "Company": "DayOne",
        "Name": "DayOne Nongsa Digital Park",
        "City": "Batam",
        "Type": "Colocation",
        "Address": "Jl. Hang Lekiu 29466 Batam Indonesia",
        "Energy": "72.4MW",
        "Server_Number": "",
        "Special Notes": "68812sqm",
        "Latitude": "1.185770821",
        "Longitude": "104.097688",
        "Elevation": "28.80"
    },
    {
        "id": "104",
        "Company": "PT Prestasi Piranti Informasi",
        "Name": "Neuviz Batam Data Center",
        "City": "Batam",
        "Type": "Colocation",
        "Address": "Jl. Jend. Sudirman 29463 Sei baloi Indonesia",
        "Energy": "",
        "Server_Number": "",
        "Special Notes": "",
        "Latitude": "1.107957225",
        "Longitude": "104.0533457",
        "Elevation": "21.30"
    },
    {
        "id": "105",
        "Company": "neuCentrIX",
        "Name": "neuCentrIX Batam",
        "City": "Batam",
        "Type": "Colocation",
        "Address": "Jl. Laksamana Bintan 29444 Batam Indonesia",
        "Energy": "",
        "Server_Number": "",
        "Special Notes": "",
        "Latitude": "1.128457445",
        "Longitude": "104.031783",
        "Elevation": "26.70"
    },
    {
        "id": "106",
        "Company": "Princeton Digital Group",
        "Name": "Princeton Digital PE1",
        "City": "Pekanbaru",
        "Type": "Colocation",
        "Address": "Simpang Baru,Tampan,Kota, Indonesia. 28292 Pekanbaru Indonesia",
        "Energy": "",
        "Server_Number": "",
        "Special Notes": "",
        "Latitude": "0.477716668",
        "Longitude": "101.3716256",
        "Elevation": "31.80"
    },
    {
        "id": "107",
        "Company": "neuCentrlX ",
        "Name": "neuCentrIX Pekanbaru",
        "City": "Pekanbaru",
        "Type": "Colocation",
        "Address": "Jl. Jendral Sudirman no.199 28111 Pekanbaru Indonesia",
        "Energy": "",
        "Server_Number": "",
        "Special Notes": "",
        "Latitude": "0.525245745",
        "Longitude": "101.4481318",
        "Elevation": "13.00"
    },
    {
        "id": "108",
        "Company": "neuCentrlX ",
        "Name": "neuCentrIX Semarang",
        "City": "Semarang",
        "Type": "Colocation",
        "Address": "Jl. Setia Budi 2 No.150 50232 Semarang Indonesia",
        "Energy": "",
        "Server_Number": "",
        "Special Notes": "",
        "Latitude": "-7.019105753",
        "Longitude": "110.4196616",
        "Elevation": "96.60"
    },
    {
        "id": "109",
        "Company": "PT. Faasri Utama Sakti",
        "Name": "Sanggar Kesatria Liema Building",
        "City": "Bogor",
        "Type": "Colocation",
        "Address": "Jl. Raya Pajajaran No.17, RT.06/RW.13 16143 Kota Bogor Indonesia",
        "Energy": "",
        "Server_Number": "",
        "Special Notes": "",
        "Latitude": "-6.612005635",
        "Longitude": "106.813823",
        "Elevation": "304.50"
    },
    {
        "id": "110",
        "Company": "IDCloud Host",
        "Name": "IDCloudHost Data Center",
        "City": "Bogor",
        "Type": "Colocation",
        "Address": "Jl. Raya Pajajaran No.17, RT.06/RW.13 3rd Floor 16143 Bogor Indonesia",
        "Energy": "",
        "Server_Number": "",
        "Special Notes": "disaster recovery center",
        "Latitude": "-6.609889863",
        "Longitude": "106.8110545",
        "Elevation": "290.80"
    },
    {
        "id": "111",
        "Company": "NeutraDC",
        "Name": "NeutraDC Sentul",
        "City": "Bogor",
        "Type": "Colocation",
        "Address": "Cijayanti 16810 Sentul West Java, Indonesia",
        "Energy": "",
        "Server_Number": "",
        "Special Notes": "",
        "Latitude": "-6.52246642",
        "Longitude": "106.8414054",
        "Elevation": "151.80"
    },
    {
        "id": "112",
        "Company": "Area31",
        "Name": "AREA31 Data Center",
        "City": "Bogor",
        "Type": "Colocation",
        "Address": "Jl. Raya Tapos No.31 16459 Depok Indonesia",
        "Energy": "25MW",
        "Server_Number": "1200",
        "Special Notes": "",
        "Latitude": "-6.440938842",
        "Longitude": "106.8772218",
        "Elevation": "111.00"
    },
    {
        "id": "113",
        "Company": "Nusantara Data Center",
        "Name": "Nusantara Data Center Palembang",
        "City": "Nusantara",
        "Type": "Colocation",
        "Address": "Jl. Aspol Punti Kayu Km.6 No.7 30151 Palembang Sumatra, Indonesia",
        "Energy": "",
        "Server_Number": "",
        "Special Notes": "",
        "Latitude": "-2.949301821",
        "Longitude": "104.730882",
        "Elevation": "11.70"
    },
    {
        "id": "114",
        "Company": "neuCenrIX",
        "Name": "neuCentrIX Talang Kalapa",
        "City": "Palembang",
        "Type": "Colocation",
        "Address": "Jl. Kolonel H. Burlian No. 45/419 30151 Palembang Indonesia",
        "Energy": "",
        "Server_Number": "",
        "Special Notes": "",
        "Latitude": "-2.958510394",
        "Longitude": "104.7369062",
        "Elevation": "12.10"
    },
    {
        "id": "115",
        "Company": "IDC Indonesia",
        "Name": "IDC Makassar",
        "City": "Makassar",
        "Type": "Colocation",
        "Address": "Menara Bosowa, Jl. Jenderal Sudirman No. 5 6th Floor 90113 Makassar Indonesia",
        "Energy": "42MW",
        "Server_Number": "",
        "Special Notes": "",
        "Latitude": "-5.134598327",
        "Longitude": "119.4142953",
        "Elevation": "7.70"
    },
    {
        "id": "116",
        "Company": "neuCenrIX",
        "Name": "neuCentrIX Makassar",
        "City": "Makassar",
        "Type": "Colocation",
        "Address": "Jl. Pajonga Dg. Ngalle No.4 90122 Makassar Indonesia",
        "Energy": "",
        "Server_Number": "",
        "Special Notes": "",
        "Latitude": "-5.160947995",
        "Longitude": "119.4154417",
        "Elevation": "12.50"
    },
    {
        "id": "117",
        "Company": "neuCenrIX",
        "Name": "neuCentrIX Batuampar",
        "City": "Balikpapan",
        "Type": "Colocation",
        "Address": "Jl. MT Haryono No. 169 76114 Balikpapan Indonesia",
        "Energy": "",
        "Server_Number": "",
        "Special Notes": "",
        "Latitude": "-1.258527343",
        "Longitude": "116.8669523",
        "Elevation": "10.60"
    },
    {
        "id": "118",
        "Company": "neuCenrIX",
        "Name": "neuCentrIX Sepaku",
        "City": "Balikpapan",
        "Type": "Colocation",
        "Address": "Jl. Pattimura No.96 76147 Balikpapan Indonesia",
        "Energy": "",
        "Server_Number": "",
        "Special Notes": "",
        "Latitude": "-1.217259741",
        "Longitude": "116.8540167",
        "Elevation": "45.90"
    },
    {
        "id": "119",
        "Company": "neuCenrIX",
        "Name": "neuCentrIX Banjarmasin Ulin",
        "City": "Banjarmasin",
        "Type": "Colocation",
        "Address": "Jl. Ahmad Yani no. 62 70234 Banjarmasin Indonesia",
        "Energy": "",
        "Server_Number": "",
        "Special Notes": "",
        "Latitude": "-3.321952085",
        "Longitude": "114.5979102",
        "Elevation": "9.00"
    },
    {
        "id": "120",
        "Company": "PT. Jembatan Citra Nusantara",
        "Name": "Citranet Surakarta",
        "City": "Surkarta",
        "Type": "Colocation",
        "Address": "Ruko Pondok Permai, Jl. Tentara Pelajar No.18 57166 Surakarta Indonesia",
        "Energy": "",
        "Server_Number": "",
        "Special Notes": "150sqm",
        "Latitude": "-7.555711397",
        "Longitude": "110.8394721",
        "Elevation": "97.70"
    },
    {
        "id": "121",
        "Company": "neuCenrIX",
        "Name": "neuCenrIX Tanjung Karang",
        "City": "Sumatra",
        "Type": "Colocation",
        "Address": "Jl. Kartini No.1 35127 Bandar Lampung Indonesia",
        "Energy": "",
        "Server_Number": "",
        "Special Notes": "",
        "Latitude": "-5.408892815",
        "Longitude": "105.2573597",
        "Elevation": "104.00"
    },
    {
        "id": "122",
        "Company": "neuCenrIX",
        "Name": "neuCentrIX Aceh",
        "City": "Sumatra",
        "Type": "Colocation",
        "Address": "Jl. Sultan Mahmudsyah No.10 23116 Banda Aceh Indonesia",
        "Energy": "",
        "Server_Number": "",
        "Special Notes": "",
        "Latitude": "5.55080236",
        "Longitude": "95.31979416",
        "Elevation": "8.20"
    },
    {
        "id": "123",
        "Company": "PT. Tangara Mitrakom",
        "Name": "Mitrakom Data Center (MDC) Ambon",
        "City": "Ambon",
        "Type": "Colocation",
        "Address": "Jl. Laksdya Wattimena 97232 Ambon Passo, Indonesia",
        "Energy": "",
        "Server_Number": "",
        "Special Notes": "",
        "Latitude": "-3.627283255",
        "Longitude": "128.2336286",
        "Elevation": "12.30"
    },
    {
        "id": "124",
        "Company": "PT. Tangara Mitrakom",
        "Name": "Mitrakom Data Center (MDC) Kupang",
        "City": "Kupang",
        "Type": "Colocation",
        "Address": "Jl. Fetor Foenay No. 8 85361 Kupang Maulafa, Indonesia",
        "Energy": "",
        "Server_Number": "",
        "Special Notes": "",
        "Latitude": "-10.17881028",
        "Longitude": "123.6028502",
        "Elevation": "101.50"
    },
    {
        "id": "125",
        "Company": "neuCentrIX ",
        "Name": "neuCentrIX Manado",
        "City": "Manado",
        "Type": "Colocation",
        "Address": "Jl. Wiratama No. 2 95356 Manado Indonesia",
        "Energy": "",
        "Server_Number": "",
        "Special Notes": "",
        "Latitude": "1.507650715",
        "Longitude": "124.9144405",
        "Elevation": "78.50"
    },
    {
        "id": "126",
        "Company": "PT. Tangara Mitrakom",
        "Name": "Mitrakom Data Center (MDC) Manokwari",
        "City": "Manokwari",
        "Type": "Colocation",
        "Address": "Jl. Arfai, Kel. Andai, Distrik Manokwari 98351 Manokwari andai, Indonesia",
        "Energy": "",
        "Server_Number": "",
        "Special Notes": "",
        "Latitude": "-0.939193285",
        "Longitude": "134.0058843",
        "Elevation": "6.80"
    },
    {
        "id": "127",
        "Company": "PT. Tangara Mitrakom",
        "Name": "Mitrakom Data Center (MDC) Mataram",
        "City": "Mataram",
        "Type": "Colocation",
        "Address": "Jl. Taruna Jaya No. 2, Taman Sari 83112 Mataram Taman Sari, Indonesia",
        "Energy": "",
        "Server_Number": "",
        "Special Notes": "",
        "Latitude": "-8.581041821",
        "Longitude": "116.0857739",
        "Elevation": "9.90"
    },
    {
        "id": "128",
        "Company": "neuCentrIX ",
        "Name": "neuCentrIX Pontianak",
        "City": "Pontianak",
        "Type": "Colocation",
        "Address": "Jl. Teuku Umar No.2 78117 Pontianak Indonesia",
        "Energy": "",
        "Server_Number": "",
        "Special Notes": "",
        "Latitude": "-0.033696088",
        "Longitude": "109.3328717",
        "Elevation": "3.80"
    },
    {
        "id": "129",
        "Company": "Lintasarta",
        "Name": "Lintasarta Jatiluhur",
        "City": "Purwakarta",
        "Type": "Colocation",
        "Address": "Jl. Lurah Kawi 1 41152 Purwakarta Indonesia",
        "Energy": "",
        "Server_Number": "",
        "Special Notes": "likely government contracted data center",
        "Latitude": "-6.522868832",
        "Longitude": "107.4117909",
        "Elevation": "129.40"
    }
]